$GPGGA,063725.000,5742.7715,N,01201.3548,E,1,5,1.90,57.7,M,40.0,M,,*6D
$GPGSA,A,3,26,27,16,18,05,,,,,,,,2.13,1.90,0.96*0F
$GPGSV,3,1,11,18,72,120,29,26,64,218,19,16,58,283,25,29,31,091,*7F
$GPGSV,3,2,11,27,27,272,30,05,26,046,20,33,20,211,,23,18,149,*79
$GPGSV,3,3,11,31,07,209,,07,04,346,25,20,03,022,20*41
$GPRMC,063725.000,A,5742.7715,N,01201.3548,E,0.44,194.98,310722,,,A*6B
$GPVTG,194.98,T,,M,0.44,N,0.81,K,A*39
$GPGGA,063726.000,5742.7716,N,01201.3550,E,1,5,1.90,57.7,M,40.0,M,,*64
$GPGSA,A,3,26,27,16,18,05,,,,,,,,2.13,1.90,0.96*0F
$GPRMC,063726.000,A,5742.7716,N,01201.3550,E,0.54,194.98,310722,,,A*63
$GPVTG,194.98,T,,M,0.54,N,1.00,K,A*30
$GPGGA,063727.000,5742.7715,N,01201.3552,E,1,5,1.90,57.8,M,40.0,M,,*6B
$GPGSA,A,3,26,27,16,18,05,,,,,,,,2.13,1.90,0.96*0F
$GPRMC,063727.000,A,5742.7715,N,01201.3552,E,0.52,194.98,310722,,,A*65
$GPVTG,194.98,T,,M,0.52,N,0.97,K,A*39
$GPGGA,063728.000,5742.7713,N,01201.3553,E,1,5,1.90,57.8,M,40.0,M,,*63
$GPGSA,A,3,26,27,16,18,05,,,,,,,,2.13,1.90,0.96*0F
$GPRMC,063728.000,A,5742.7713,N,01201.3553,E,0.73,214.10,310722,,,A*65
$GPVTG,214.10,T,,M,0.73,N,1.36,K,A*3B
$GPGGA,063729.000,5742.7713,N,01201.3551,E,1,5,1.90,57.7,M,40.0,M,,*6F
$GPGSA,A,3,26,27,16,18,05,,,,,,,,2.13,1.90,0.96*0F
$GPRMC,063729.000,A,5742.7713,N,01201.3551,E,0.68,182.66,310722,,,A*61
$GPVTG,182.66,T,,M,0.68,N,1.25,K,A*3E
$GPGGA,063730.000,5742.7712,N,01201.3552,E,1,5,1.90,57.6,M,40.0,M,,*64
$GPGSA,A,3,26,27,16,18,05,,,,,,,,2.13,1.90,0.96*0F
$GPGSV,3,1,11,18,72,120,31,26,64,218,20,16,58,283,24,29,31,091,*7D
$GPGSV,3,2,11,27,27,272,29,05,26,046,20,23,18,149,,40,10,123,*74
$GPGSV,3,3,11,31,07,209,,07,04,346,24,20,03,022,17*44
$GPRMC,063730.000,A,5742.7712,N,01201.3552,E,0.67,149.47,310722,,,A*60
$GPVTG,149.47,T,,M,0.67,N,1.25,K,A*35
$GPGGA,063731.000,5742.7710,N,01201.3556,E,1,5,1.90,57.6,M,40.0,M,,*63
$GPGSA,A,3,26,27,16,18,05,,,,,,,,2.13,1.90,0.96*0F
$GPRMC,063731.000,A,5742.7710,N,01201.3556,E,1.40,135.30,310722,,,A*68
$GPVTG,135.30,T,,M,1.40,N,2.60,K,A*38
$GPGGA,063732.000,5742.7717,N,01201.3555,E,1,5,1.90,57.7,M,40.0,M,,*65
$GPGSA,A,3,26,27,16,18,05,,,,,,,,2.13,1.90,0.96*0F
$GPRMC,063732.000,A,5742.7717,N,01201.3555,E,0.63,24.04,310722,,,A*59
$GPVTG,24.04,T,,M,0.63,N,1.17,K,A*0D
$GPGGA,063733.000,5742.7719,N,01201.3555,E,1,5,1.90,57.7,M,40.0,M,,*6A
$GPGSA,A,3,26,27,16,18,05,,,,,,,,2.13,1.90,0.96*0F
$GPRMC,063733.000,A,5742.7719,N,01201.3555,E,0.68,21.78,310722,,,A*53
$GPVTG,21.78,T,,M,0.68,N,1.25,K,A*09
$GPGGA,063734.000,5742.7718,N,01201.3557,E,1,5,1.90,57.6,M,40.0,M,,*6F
$GPGSA,A,3,26,27,16,18,05,,,,,,,,2.13,1.90,0.96*0F
$GPRMC,063734.000,A,5742.7718,N,01201.3557,E,0.44,21.78,310722,,,A*59
$GPVTG,21.78,T,,M,0.44,N,0.81,K,A*08
$GPGGA,063735.000,5742.7720,N,01201.3561,E,1,5,1.90,57.4,M,40.0,M,,*62
$GPGSA,A,3,26,27,16,18,05,,,,,,,,2.13,1.90,0.96*0F
$GPGSV,3,1,11,18,72,120,32,26,64,218,20,16,58,282,25,29,31,091,*7E
$GPGSV,3,2,11,27,27,272,29,05,26,046,20,23,18,149,,40,10,123,*74
$GPGSV,3,3,11,31,07,209,,07,04,346,25,20,03,022,20*41
$GPRMC,063735.000,A,5742.7720,N,01201.3561,E,0.36,21.78,310722,,,A*53
$GPVTG,21.78,T,,M,0.36,N,0.67,K,A*05
$GPGGA,063736.000,5742.7721,N,01201.3564,E,1,5,1.90,57.2,M,40.0,M,,*63
$GPGSA,A,3,26,27,16,18,05,,,,,,,,2.13,1.90,0.96*0F
$GPRMC,063736.000,A,5742.7721,N,01201.3564,E,0.90,187.31,310722,,,A*68
$GPVTG,187.31,T,,M,0.90,N,1.66,K,A*39
$GPGGA,063737.000,5742.7725,N,01201.3566,E,1,5,1.90,57.0,M,40.0,M,,*66
$GPGSA,A,3,26,27,16,18,05,,,,,,,,2.13,1.90,0.96*0F
$GPRMC,063737.000,A,5742.7725,N,01201.3566,E,1.57,180.02,310722,,,A*62
$GPVTG,180.02,T,,M,1.57,N,2.91,K,A*3F
$GPGGA,063738.000,5742.7726,N,01201.3566,E,1,5,1.90,56.9,M,40.0,M,,*62
$GPGSA,A,3,26,27,16,18,05,,,,,,,,2.13,1.90,0.96*0F
$GPRMC,063738.000,A,5742.7726,N,01201.3566,E,1.92,197.70,310722,,,A*64
$GPVTG,197.70,T,,M,1.92,N,3.55,K,A*3C
$GPGGA,063739.000,5742.7726,N,01201.3565,E,1,5,1.90,56.9,M,40.0,M,,*60
$GPGSA,A,3,26,27,16,18,05,,,,,,,,2.13,1.90,0.96*0F
$GPRMC,063739.000,A,5742.7726,N,01201.3565,E,1.55,197.64,310722,,,A*68
$GPVTG,197.64,T,,M,1.55,N,2.87,K,A*3C

# From another module

$GNRMC,152931.00,A,5742.77104,N,01201.36257,E,0.015,,150323,,,A*67
$GNVTG,,T,,M,0.015,N,0.028,K,A*33
$GNGGA,152931.00,5742.77104,N,01201.36257,E,1,12,0.77,37.9,M,38.2,M,,*7E
$GNGSA,A,3,02,05,18,29,07,26,23,,,,,,1.40,0.77,1.17*19
$GNGSA,A,3,86,70,76,69,85,78,87,71,,,,,1.40,0.77,1.17*12
$GPGSV,3,1,11,02,32,063,49,05,17,034,44,07,13,335,42,13,02,053,*74
$GPGSV,3,2,11,15,04,082,39,16,61,272,24,18,71,100,48,23,29,143,35*71
$GPGSV,3,3,11,26,53,195,15,29,16,096,48,39,11,123,31*45
$GLGSV,3,1,10,69,16,002,47,70,27,066,37,71,08,112,44,76,36,198,16*66
$GLGSV,3,2,10,77,58,271,,78,19,333,29,85,26,062,49,86,74,047,47*6E
$GLGSV,3,3,10,87,41,252,31,,,,48*55
$GNGLL,5742.77104,N,01201.36257,E,152931.00,A,A*7C
$GNRMC,152932.00,A,5742.77102,N,01201.36256,E,0.013,,150323,,,A*65
$GNVTG,,T,,M,0.013,N,0.023,K,A*3E
$GNGGA,152932.00,5742.77102,N,01201.36256,E,1,12,0.77,37.9,M,38.2,M,,*7A
$GNGSA,A,3,02,05,18,29,07,26,23,,,,,,1.40,0.77,1.17*19
$GNGSA,A,3,86,70,76,69,85,78,87,71,,,,,1.40,0.77,1.17*12
$GPGSV,3,1,11,02,32,063,49,05,17,034,44,07,13,335,42,13,02,053,*74
$GPGSV,3,2,11,15,04,082,39,16,61,271,25,18,71,100,48,23,29,143,35*73
$GPGSV,3,3,11,26,53,195,15,29,16,096,48,39,11,123,32*46
$GLGSV,3,1,10,69,16,002,47,70,27,066,36,71,08,112,43,76,36,198,18*6E
$GLGSV,3,2,10,77,58,271,,78,19,333,30,85,26,062,48,86,74,047,46*66
$GLGSV,3,3,10,87,41,252,30,,,,47*5B
$GNGLL,5742.77102,N,01201.36256,E,152932.00,A,A*78
